[
    {
        "singer_name": "Maneskin",
        "concert_name": "Maneskin_Stage_1",
        "location": {
            "city": "Rome",
            "stadium": "Olympic Stadium",
            "geographical_position": {
                "latitude": "41.93414082985401",
                "longitude": "12.454724997853837"
            }
        },
        "": "18/06/2023 19:00",
        "total_seats": 60000,
        "pegi_rating": 18
    },
    {
        "singer_name": "Maneskin",
        "concert_name": "Maneskin_Stage_2",
        "location": {
            "city": "Milan",
            "stadium": "San Siro",
            "geographical_position": {
                "latitude": "45.47822137621811",
                "longitude": "9.12391908263357"
            }
        },
        "date": "20/06/2023 20:00",
        "music_genre": "rock",
        "total_seats": 80000,
        "pegi_rating": 18
    },
    {
        "singer_name": "Pinguini Tattici Nucleari",
        "concert_name": "Pinguini_Stage_1",
        "location": {
            "city": "Milan",
            "stadium": "San Siro",
            "geographical_position": {
                "latitude": "45.47822137621811",
                "longitude": "9.12391908263357"
            }
        },
        "date": "23/06/2023 21:00",
        "music_genre": "indie",
        "total_seats": 80000,
        "pegi_rating": 13
    },
    {
        "singer_name": "Pinguini Tattici Nucleari",
        "concert_name": "Pinguini_Stage_2",
        "location": {
            "city": "Rome",
            "stadium": "Olympic Stadium",
            "geographical_position": {
                "latitude": "41.93414082985401",
                "longitude": "12.454724997853837"
            }
        },
        "date": "11/06/2023 21:30",
        "music_genre": "indie",
        "total_seats": 60000,
        "pegi_rating": 18
    },
    {
        "singer_name": "Gianna Nannini",
        "concert_name": "Gianna_Stage_1",
        "location": {
            "city": "Trieste",
            "stadium": "Politeama Rossetti",
            "geographical_position": {
                "latitude": "45.50187829956323",
                "longitude": "9.185654650198572"
            }
        },
        "date": "22/11/2022 19:30",
        "music_genre": "pop-rock",
        "total_seats": 10000,
        "pegi_rating": 6
    },
    {
        "singer_name": "Gianna Nannini",
        "concert_name": "Gianna_Stage_2",
        "location": {
            "city": "Brescia",
            "stadium": "Brixia Forum",
            "geographical_position": {
                "latitude": "45.529004016703865",
                "longitude": "10.173460627681031"
            }
        },
        "date": "25/11/2022 19:00",
        "music_genre": "pop-rock",
        "total_seats": 8500,
        "pegi_rating": 6
    },
    {
        "singer_name": "Gianna Nannini",
        "concert_name": "Gianna_Stage_3",
        "location": {
            "city": "Mantova",
            "stadium": "Grana Padano Theater",
            "geographical_position": {
                "latitude": "45.167197638834175",
                "longitude": "10.82604125245436"
            }
        },
        "date": "26/11/2022 20:00",
        "music_genre": "pop-rock",
        "total_seats": 100000,
        "pegi_rating": 6
    },
    {
        "singer_name": "Gianna Nannini",
        "concert_name": "Gianna_Stage_4",
        "location": {
            "city": "Genoa",
            "stadium": "Carlo Felice Theater",
            "geographical_position": {
                "latitude": "44.4081748026751",
                "longitude": "8.935134535577724"
            }
        },
        "date": "28/11/2022 21:00",
        "music_genre": "pop-rock",
        "total_seats": 12000,
        "pegi_rating": 6
    },
    {
        "singer_name": "Gianna Nannini",
        "concert_name": "Gianna_Stage_5",
        "location": {
            "city": "Naples",
            "stadium": "San Carlo Theater",
            "geographical_position": {
                "latitude": "40.83765513793694",
                "longitude": "14.249637797349811"
            }
        },
        "date": "30/11/2022 21:30",
        "music_genre": "pop-rock",
        "total_seats": 5000,
        "pegi_rating": 6
    }
]
